{
  "type": "FeatureCollection",
  "generator": "overpass-turbo",
  "copyright": "The data included in this document is from www.openstreetmap.org. The data is made available under ODbL.",
  "timestamp": "2016-02-19T00:41:02Z",
  "features": [
    {
      "type": "Feature",
      "id": "node/471575088",
      "properties": {
        "@id": "node/471575088",
        "bench": "yes",
        "bus": "yes",
        "public_transport": "platform",
        "share_taxi": "yes",
        "shelter": "yes",
        "trolleybus": "yes"
      },
      "geometry": {
        "type": "Point",
        "coordinates": [
          35.0397034,
          48.4291945
        ]
      }
    },
    {
      "type": "Feature",
      "id": "node/975377975",
      "properties": {
        "@id": "node/975377975",
        "bench": "yes",
        "bus": "yes",
        "highway": "bus_stop",
        "name": "Славутич",
        "name:ru": "Славутич",
        "name:uk": "Славутич",
        "public_transport": "platform",
        "shelter": "yes",
        "trolleybus": "yes"
      },
      "geometry": {
        "type": "Point",
        "coordinates": [
          35.0115381,
          48.4330992
        ]
      }
    },
    {
      "type": "Feature",
      "id": "node/975377984",
      "properties": {
        "@id": "node/975377984",
        "bench": "yes",
        "bus": "yes",
        "highway": "bus_stop",
        "name": "Славутич",
        "name:ru": "Славутич",
        "name:uk": "Славутич",
        "public_transport": "platform",
        "shelter": "yes",
        "trolleybus": "yes"
      },
      "geometry": {
        "type": "Point",
        "coordinates": [
          35.012266,
          48.4330131
        ]
      }
    },
    {
      "type": "Feature",
      "id": "node/1069317401",
      "properties": {
        "@id": "node/1069317401",
        "bench": "yes",
        "bus": "yes",
        "name": "Калинівський ринок",
        "name:ru": "Калиновский рынок",
        "name:uk": "Калинівський ринок",
        "public_transport": "platform",
        "share_taxi": "yes",
        "shelter": "yes",
        "trolleybus": "yes"
      },
      "geometry": {
        "type": "Point",
        "coordinates": [
          35.0753098,
          48.5115451
        ]
      }
    },
    {
      "type": "Feature",
      "id": "node/1069321748",
      "properties": {
        "@id": "node/1069321748",
        "bench": "yes",
        "bus": "yes",
        "name": "Будинок побуту",
        "name:ru": "Дом быта",
        "name:uk": "Будинок побуту",
        "public_transport": "platform",
        "share_taxi": "yes",
        "shelter": "yes",
        "trolleybus": "yes"
      },
      "geometry": {
        "type": "Point",
        "coordinates": [
          35.0668583,
          48.5130113
        ]
      }
    },
    {
      "type": "Feature",
      "id": "node/1069323216",
      "properties": {
        "@id": "node/1069323216",
        "bench": "yes",
        "bus": "yes",
        "name": "Cофьи Ковалевской",
        "public_transport": "platform",
        "share_taxi": "yes",
        "shelter": "yes",
        "trolleybus": "yes"
      },
      "geometry": {
        "type": "Point",
        "coordinates": [
          35.0625837,
          48.5137797
        ]
      }
    },
    {
      "type": "Feature",
      "id": "node/1069324938",
      "properties": {
        "@id": "node/1069324938",
        "bench": "yes",
        "bus": "yes",
        "name": "Софьи Ковалевской",
        "public_transport": "platform",
        "share_taxi": "yes",
        "shelter": "yes",
        "trolleybus": "yes"
      },
      "geometry": {
        "type": "Point",
        "coordinates": [
          35.0615441,
          48.5142526
        ]
      }
    },
    {
      "type": "Feature",
      "id": "node/1370241417",
      "properties": {
        "@id": "node/1370241417",
        "bench": "yes",
        "bus": "yes",
        "public_transport": "platform",
        "share_taxi": "yes",
        "shelter": "yes",
        "trolleybus": "yes"
      },
      "geometry": {
        "type": "Point",
        "coordinates": [
          35.0358827,
          48.5236043
        ]
      }
    },
    {
      "type": "Feature",
      "id": "node/1370241418",
      "properties": {
        "@id": "node/1370241418",
        "bus": "yes",
        "public_transport": "platform",
        "share_taxi": "yes",
        "trolleybus": "yes"
      },
      "geometry": {
        "type": "Point",
        "coordinates": [
          35.0464127,
          48.5242514
        ]
      }
    },
    {
      "type": "Feature",
      "id": "node/1370241428",
      "properties": {
        "@id": "node/1370241428",
        "bench": "yes",
        "bus": "yes",
        "public_transport": "platform",
        "share_taxi": "yes",
        "shelter": "yes",
        "trolleybus": "yes"
      },
      "geometry": {
        "type": "Point",
        "coordinates": [
          35.0363495,
          48.5241799
        ]
      }
    },
    {
      "type": "Feature",
      "id": "node/1597658830",
      "properties": {
        "@id": "node/1597658830",
        "bench": "yes",
        "bus": "yes",
        "name": "Калинівський ринок",
        "name:ru": "Калиновский рынок",
        "name:uk": "Калинівський ринок",
        "public_transport": "platform",
        "share_taxi": "yes",
        "shelter": "yes",
        "trolleybus": "yes"
      },
      "geometry": {
        "type": "Point",
        "coordinates": [
          35.0765335,
          48.5107575
        ]
      }
    },
    {
      "type": "Feature",
      "id": "node/1614172565",
      "properties": {
        "@id": "node/1614172565",
        "bench": "yes",
        "bus": "yes",
        "highway": "bus_stop",
        "name": "Медтехніка",
        "name:ru": "Медтехника",
        "name:uk": "Медтехніка",
        "public_transport": "platform",
        "shelter": "yes",
        "trolleybus": "yes"
      },
      "geometry": {
        "type": "Point",
        "coordinates": [
          35.0246952,
          48.4564927
        ]
      }
    },
    {
      "type": "Feature",
      "id": "node/1614177291",
      "properties": {
        "@id": "node/1614177291",
        "bench": "no",
        "bus": "yes",
        "highway": "bus_stop",
        "name": "Ульянова вулиця",
        "name:en": "Ulianova Street",
        "name:ru": "Ульянова улица",
        "name:uk": "Ульянова вулиця",
        "public_transport": "platform",
        "shelter": "no",
        "trolleybus": "yes"
      },
      "geometry": {
        "type": "Point",
        "coordinates": [
          35.0267647,
          48.460341
        ]
      }
    },
    {
      "type": "Feature",
      "id": "node/1625861828",
      "properties": {
        "@id": "node/1625861828",
        "bench": "yes",
        "name": "Кірова проспект",
        "name:en": "Kirova Avenue",
        "name:ru": "Кирова проспект",
        "name:uk": "Кірова проспект",
        "public_transport": "platform",
        "share_taxi": "yes",
        "shelter": "yes",
        "trolleybus": "yes"
      },
      "geometry": {
        "type": "Point",
        "coordinates": [
          35.0297807,
          48.4648858
        ]
      }
    },
    {
      "type": "Feature",
      "id": "node/2300040234",
      "properties": {
        "@id": "node/2300040234",
        "public_transport": "platform",
        "shelter": "yes",
        "trolleybus": "yes"
      },
      "geometry": {
        "type": "Point",
        "coordinates": [
          35.0573513,
          48.4894507
        ]
      }
    },
    {
      "type": "Feature",
      "id": "node/2300040235",
      "properties": {
        "@id": "node/2300040235",
        "public_transport": "platform",
        "shelter": "yes",
        "trolleybus": "yes"
      },
      "geometry": {
        "type": "Point",
        "coordinates": [
          35.0566512,
          48.4899363
        ]
      }
    },
    {
      "type": "Feature",
      "id": "node/2300040241",
      "properties": {
        "@id": "node/2300040241",
        "public_transport": "platform",
        "shelter": "yes",
        "trolleybus": "yes"
      },
      "geometry": {
        "type": "Point",
        "coordinates": [
          35.0495051,
          48.4915876
        ]
      }
    },
    {
      "type": "Feature",
      "id": "node/2300040242",
      "properties": {
        "@id": "node/2300040242",
        "public_transport": "platform",
        "shelter": "yes",
        "trolleybus": "yes"
      },
      "geometry": {
        "type": "Point",
        "coordinates": [
          35.0505214,
          48.4918024
        ]
      }
    },
    {
      "type": "Feature",
      "id": "node/2300040245",
      "properties": {
        "@id": "node/2300040245",
        "public_transport": "platform",
        "trolleybus": "yes"
      },
      "geometry": {
        "type": "Point",
        "coordinates": [
          35.0453509,
          48.4929914
        ]
      }
    },
    {
      "type": "Feature",
      "id": "node/2300040255",
      "properties": {
        "@id": "node/2300040255",
        "public_transport": "platform",
        "trolleybus": "yes"
      },
      "geometry": {
        "type": "Point",
        "coordinates": [
          35.0447232,
          48.4931045
        ]
      }
    },
    {
      "type": "Feature",
      "id": "node/2300059588",
      "properties": {
        "@id": "node/2300059588",
        "public_transport": "platform",
        "trolleybus": "yes"
      },
      "geometry": {
        "type": "Point",
        "coordinates": [
          35.0410574,
          48.4948326
        ]
      }
    },
    {
      "type": "Feature",
      "id": "node/2300095344",
      "properties": {
        "@id": "node/2300095344",
        "public_transport": "platform",
        "trolleybus": "yes"
      },
      "geometry": {
        "type": "Point",
        "coordinates": [
          35.0368483,
          48.4966332
        ]
      }
    },
    {
      "type": "Feature",
      "id": "node/2321276264",
      "properties": {
        "@id": "node/2321276264",
        "bench": "yes",
        "bus": "yes",
        "description": "113;53",
        "highway": "bus_stop",
        "name": "Титова вулиця",
        "name:ru": "Титова улица",
        "name:uk": "Титова вулиця",
        "public_transport": "platform",
        "share_taxi": "yes",
        "shelter": "yes",
        "trolleybus": "yes"
      },
      "geometry": {
        "type": "Point",
        "coordinates": [
          35.0110141,
          48.4306628
        ]
      }
    },
    {
      "type": "Feature",
      "id": "node/2356498309",
      "properties": {
        "@id": "node/2356498309",
        "bench": "yes",
        "bus": "yes",
        "public_transport": "platform",
        "share_taxi": "yes",
        "shelter": "yes",
        "trolleybus": "yes"
      },
      "geometry": {
        "type": "Point",
        "coordinates": [
          35.0742456,
          48.504301
        ]
      }
    },
    {
      "type": "Feature",
      "id": "node/2748366289",
      "properties": {
        "@id": "node/2748366289",
        "bus": "yes",
        "public_transport": "stop_position",
        "share_taxi": "yes",
        "trolleybus": "yes"
      },
      "geometry": {
        "type": "Point",
        "coordinates": [
          35.0463847,
          48.5169628
        ]
      }
    },
    {
      "type": "Feature",
      "id": "node/2748366291",
      "properties": {
        "@id": "node/2748366291",
        "bus": "yes",
        "public_transport": "stop_position",
        "share_taxi": "yes",
        "trolleybus": "yes"
      },
      "geometry": {
        "type": "Point",
        "coordinates": [
          35.0452111,
          48.5179296
        ]
      }
    },
    {
      "type": "Feature",
      "id": "node/2748443431",
      "properties": {
        "@id": "node/2748443431",
        "bench": "yes",
        "bus": "yes",
        "public_transport": "platform",
        "share_taxi": "yes",
        "shelter": "yes",
        "trolleybus": "yes"
      },
      "geometry": {
        "type": "Point",
        "coordinates": [
          35.0561695,
          48.5149779
        ]
      }
    },
    {
      "type": "Feature",
      "id": "node/2748443435",
      "properties": {
        "@id": "node/2748443435",
        "bus": "yes",
        "public_transport": "stop_position",
        "share_taxi": "yes",
        "trolleybus": "yes"
      },
      "geometry": {
        "type": "Point",
        "coordinates": [
          35.0562117,
          48.5151179
        ]
      }
    },
    {
      "type": "Feature",
      "id": "node/2748443438",
      "properties": {
        "@id": "node/2748443438",
        "bus": "yes",
        "public_transport": "stop_position",
        "share_taxi": "yes",
        "trolleybus": "yes"
      },
      "geometry": {
        "type": "Point",
        "coordinates": [
          35.0540838,
          48.5155225
        ]
      }
    },
    {
      "type": "Feature",
      "id": "node/2748443441",
      "properties": {
        "@id": "node/2748443441",
        "bench": "yes",
        "bus": "yes",
        "public_transport": "platform",
        "share_taxi": "yes",
        "shelter": "yes",
        "trolleybus": "yes"
      },
      "geometry": {
        "type": "Point",
        "coordinates": [
          35.0541001,
          48.5155993
        ]
      }
    },
    {
      "type": "Feature",
      "id": "node/2748443448",
      "properties": {
        "@id": "node/2748443448",
        "bus": "yes",
        "public_transport": "stop_position",
        "share_taxi": "yes",
        "trolleybus": "yes"
      },
      "geometry": {
        "type": "Point",
        "coordinates": [
          35.0507412,
          48.5161346
        ]
      }
    },
    {
      "type": "Feature",
      "id": "node/2748443460",
      "properties": {
        "@id": "node/2748443460",
        "bus": "yes",
        "public_transport": "stop_position",
        "share_taxi": "yes",
        "trolleybus": "yes"
      },
      "geometry": {
        "type": "Point",
        "coordinates": [
          35.0490743,
          48.5164446
        ]
      }
    },
    {
      "type": "Feature",
      "id": "node/2748443466",
      "properties": {
        "@id": "node/2748443466",
        "bench": "yes",
        "bus": "yes",
        "public_transport": "platform",
        "share_taxi": "yes",
        "shelter": "yes",
        "trolleybus": "yes"
      },
      "geometry": {
        "type": "Point",
        "coordinates": [
          35.0491419,
          48.5165529
        ]
      }
    },
    {
      "type": "Feature",
      "id": "node/3021262414",
      "properties": {
        "@id": "node/3021262414",
        "bench": "yes",
        "bus": "yes",
        "public_transport": "platform",
        "share_taxi": "yes",
        "shelter": "yes",
        "trolleybus": "yes"
      },
      "geometry": {
        "type": "Point",
        "coordinates": [
          35.0772721,
          48.5113967
        ]
      }
    },
    {
      "type": "Feature",
      "id": "node/3021295190",
      "properties": {
        "@id": "node/3021295190",
        "bench": "yes",
        "bus": "yes",
        "name": "вулиця Донецька",
        "name:ru": "улица Донецкая",
        "name:uk": "вулиця Донецька",
        "public_transport": "platform",
        "share_taxi": "yes",
        "shelter": "yes",
        "trolleybus": "yes"
      },
      "geometry": {
        "type": "Point",
        "coordinates": [
          35.075937,
          48.5081799
        ]
      }
    },
    {
      "type": "Feature",
      "id": "node/3021295197",
      "properties": {
        "@id": "node/3021295197",
        "bench": "yes",
        "bus": "yes",
        "public_transport": "platform",
        "share_taxi": "yes",
        "shelter": "yes",
        "trolleybus": "yes"
      },
      "geometry": {
        "type": "Point",
        "coordinates": [
          35.0786223,
          48.5145775
        ]
      }
    },
    {
      "type": "Feature",
      "id": "node/3021352910",
      "properties": {
        "@id": "node/3021352910",
        "bench": "yes",
        "bus": "yes",
        "public_transport": "platform",
        "share_taxi": "yes",
        "shelter": "yes",
        "trolleybus": "yes"
      },
      "geometry": {
        "type": "Point",
        "coordinates": [
          35.0794015,
          48.5165721
        ]
      }
    },
    {
      "type": "Feature",
      "id": "node/3021369276",
      "properties": {
        "@id": "node/3021369276",
        "bench": "yes",
        "bus": "yes",
        "public_transport": "platform",
        "share_taxi": "yes",
        "shelter": "yes",
        "trolleybus": "yes"
      },
      "geometry": {
        "type": "Point",
        "coordinates": [
          35.0808017,
          48.5197403
        ]
      }
    },
    {
      "type": "Feature",
      "id": "node/3021380508",
      "properties": {
        "@id": "node/3021380508",
        "bus": "yes",
        "public_transport": "platform",
        "share_taxi": "yes",
        "trolleybus": "yes"
      },
      "geometry": {
        "type": "Point",
        "coordinates": [
          35.081586,
          48.5216447
        ]
      }
    },
    {
      "type": "Feature",
      "id": "node/3021387910",
      "properties": {
        "@id": "node/3021387910",
        "bus": "yes",
        "public_transport": "platform",
        "share_taxi": "yes",
        "trolleybus": "yes"
      },
      "geometry": {
        "type": "Point",
        "coordinates": [
          35.0840052,
          48.5274216
        ]
      }
    },
    {
      "type": "Feature",
      "id": "node/3021387912",
      "properties": {
        "@id": "node/3021387912",
        "bus": "yes",
        "public_transport": "platform",
        "share_taxi": "yes",
        "trolleybus": "yes"
      },
      "geometry": {
        "type": "Point",
        "coordinates": [
          35.0832131,
          48.5274814
        ]
      }
    },
    {
      "type": "Feature",
      "id": "node/3130309708",
      "properties": {
        "@id": "node/3130309708",
        "bench": "yes",
        "bus": "yes",
        "public_transport": "platform",
        "share_taxi": "yes",
        "shelter": "yes",
        "trolleybus": "yes"
      },
      "geometry": {
        "type": "Point",
        "coordinates": [
          35.0828067,
          48.5258761
        ]
      }
    },
    {
      "type": "Feature",
      "id": "node/3130355954",
      "properties": {
        "@id": "node/3130355954",
        "bench": "yes",
        "bus": "yes",
        "public_transport": "platform",
        "share_taxi": "yes",
        "shelter": "yes",
        "trolleybus": "yes"
      },
      "geometry": {
        "type": "Point",
        "coordinates": [
          35.0796073,
          48.5181568
        ]
      }
    },
    {
      "type": "Feature",
      "id": "node/3130390518",
      "properties": {
        "@id": "node/3130390518",
        "bench": "yes",
        "bus": "yes",
        "name": "Магазин Океан",
        "public_transport": "platform",
        "share_taxi": "yes",
        "shelter": "yes",
        "trolleybus": "yes"
      },
      "geometry": {
        "type": "Point",
        "coordinates": [
          35.0776422,
          48.5133799
        ]
      }
    },
    {
      "type": "Feature",
      "id": "node/3136091471",
      "properties": {
        "@id": "node/3136091471",
        "bench": "yes",
        "bus": "yes",
        "name": "вулиця Донецька",
        "name:ru": "улица Донецкая",
        "name:uk": "вулиця Донецька",
        "public_transport": "platform",
        "share_taxi": "yes",
        "shelter": "yes",
        "trolleybus": "yes"
      },
      "geometry": {
        "type": "Point",
        "coordinates": [
          35.0751601,
          48.5075522
        ]
      }
    },
    {
      "type": "Feature",
      "id": "node/3136106336",
      "properties": {
        "@id": "node/3136106336",
        "bench": "no",
        "bus": "yes",
        "highway": "bus_stop",
        "name": "Завод им. Карла Либкнехта",
        "share_taxi": "yes",
        "shelter": "no",
        "trolleybus": "yes"
      },
      "geometry": {
        "type": "Point",
        "coordinates": [
          35.070258,
          48.4985294
        ]
      }
    },
    {
      "type": "Feature",
      "id": "node/3235350091",
      "properties": {
        "@id": "node/3235350091",
        "bench": "yes",
        "bus": "yes",
        "public_transport": "platform",
        "share_taxi": "yes",
        "shelter": "yes",
        "trolleybus": "yes"
      },
      "geometry": {
        "type": "Point",
        "coordinates": [
          35.0309155,
          48.4260721
        ]
      }
    },
    {
      "type": "Feature",
      "id": "node/3235350101",
      "properties": {
        "@id": "node/3235350101",
        "bench": "yes",
        "bus": "yes",
        "public_transport": "platform",
        "share_taxi": "yes",
        "shelter": "yes",
        "trolleybus": "yes"
      },
      "geometry": {
        "type": "Point",
        "coordinates": [
          35.0354112,
          48.4276804
        ]
      }
    },
    {
      "type": "Feature",
      "id": "node/3235380738",
      "properties": {
        "@id": "node/3235380738",
        "bench": "yes",
        "bus": "yes",
        "public_transport": "platform",
        "share_taxi": "yes",
        "shelter": "yes",
        "trolleybus": "yes"
      },
      "geometry": {
        "type": "Point",
        "coordinates": [
          35.0585988,
          48.4487377
        ]
      }
    },
    {
      "type": "Feature",
      "id": "node/3235380744",
      "properties": {
        "@id": "node/3235380744",
        "bench": "yes",
        "bus": "yes",
        "public_transport": "platform",
        "share_taxi": "yes",
        "shelter": "yes",
        "trolleybus": "yes"
      },
      "geometry": {
        "type": "Point",
        "coordinates": [
          35.06284,
          48.4523448
        ]
      }
    },
    {
      "type": "Feature",
      "id": "node/3291486691",
      "properties": {
        "@id": "node/3291486691",
        "bus": "yes",
        "name": "вулиця Телевізійна",
        "public_transport": "stop_position",
        "share_taxi": "yes",
        "trolleybus": "yes"
      },
      "geometry": {
        "type": "Point",
        "coordinates": [
          35.0517855,
          48.4434976
        ]
      }
    },
    {
      "type": "Feature",
      "id": "node/3291491772",
      "properties": {
        "@id": "node/3291491772",
        "bench": "yes",
        "bus": "yes",
        "public_transport": "platform",
        "share_taxi": "yes",
        "shelter": "yes",
        "trolleybus": "yes"
      },
      "geometry": {
        "type": "Point",
        "coordinates": [
          35.0585623,
          48.4489411
        ]
      }
    },
    {
      "type": "Feature",
      "id": "node/3317734903",
      "properties": {
        "@id": "node/3317734903",
        "bench": "yes",
        "bus": "yes",
        "highway": "bus_stop",
        "name": "Карла Маркса проспект",
        "name:en": "Karla Marksa Avenue",
        "name:ru": "Карла Маркса проспект",
        "name:uk": "Карла Маркса проспект",
        "public_transport": "platform",
        "share_taxi": "yes",
        "shelter": "yes",
        "trolleybus": "yes"
      },
      "geometry": {
        "type": "Point",
        "coordinates": [
          35.038486,
          48.4681875
        ]
      }
    },
    {
      "type": "Feature",
      "id": "node/3456436353",
      "properties": {
        "@id": "node/3456436353",
        "bench": "yes",
        "bus": "yes",
        "public_transport": "platform",
        "share_taxi": "yes",
        "shelter": "yes",
        "trolleybus": "yes"
      },
      "geometry": {
        "type": "Point",
        "coordinates": [
          35.0433711,
          48.4328794
        ]
      }
    },
    {
      "type": "Feature",
      "id": "node/3456436354",
      "properties": {
        "@id": "node/3456436354",
        "bus": "yes",
        "public_transport": "platform",
        "share_taxi": "yes",
        "trolleybus": "yes"
      },
      "geometry": {
        "type": "Point",
        "coordinates": [
          35.0442464,
          48.4332773
        ]
      }
    },
    {
      "type": "Feature",
      "id": "node/3456442593",
      "properties": {
        "@id": "node/3456442593",
        "bench": "yes",
        "bus": "yes",
        "public_transport": "platform",
        "share_taxi": "yes",
        "shelter": "yes",
        "trolleybus": "yes"
      },
      "geometry": {
        "type": "Point",
        "coordinates": [
          35.0644778,
          48.4538017
        ]
      }
    },
    {
      "type": "Feature",
      "id": "node/3470389383",
      "properties": {
        "@id": "node/3470389383",
        "bench": "yes",
        "bus": "yes",
        "public_transport": "platform",
        "share_taxi": "yes",
        "shelter": "yes",
        "trolleybus": "yes"
      },
      "geometry": {
        "type": "Point",
        "coordinates": [
          35.0490168,
          48.4390772
        ]
      }
    },
    {
      "type": "Feature",
      "id": "node/3494099597",
      "properties": {
        "@id": "node/3494099597",
        "bench": "yes",
        "bus": "yes",
        "highway": "bus_stop",
        "name": "вулиця Гавриленка",
        "name:en": "Havrylenka Street",
        "name:ru": "улица Гавриленко",
        "name:uk": "вулиця Гавриленка",
        "public_transport": "platform",
        "share_taxi": "yes",
        "shelter": "yes",
        "trolleybus": "yes"
      },
      "geometry": {
        "type": "Point",
        "coordinates": [
          35.0149119,
          48.4380336
        ]
      }
    },
    {
      "type": "Feature",
      "id": "node/3523642947",
      "properties": {
        "@id": "node/3523642947",
        "bench": "yes",
        "highway": "bus_stop",
        "name:ru": "Уют",
        "public_transport": "platform",
        "shelter": "yes",
        "trolleybus": "yes"
      },
      "geometry": {
        "type": "Point",
        "coordinates": [
          35.0155925,
          48.4406272
        ]
      }
    },
    {
      "type": "Feature",
      "id": "node/3523692843",
      "properties": {
        "@id": "node/3523692843",
        "highway": "bus_stop",
        "name": "вулиця Гавриленка",
        "name:en": "Havrylenka Street",
        "name:ru": "улица Гавриленко",
        "name:uk": "вулиця Гавриленка",
        "public_transport": "platform",
        "trolleybus": "yes"
      },
      "geometry": {
        "type": "Point",
        "coordinates": [
          35.0134408,
          48.4365832
        ]
      }
    },
    {
      "type": "Feature",
      "id": "node/3523697721",
      "properties": {
        "@id": "node/3523697721",
        "bench": "yes",
        "bus": "yes",
        "highway": "bus_stop",
        "name": "Юність",
        "name:ru": "Юность",
        "name:uk": "Юність",
        "share_taxi": "yes",
        "shelter": "yes",
        "trolleybus": "yes"
      },
      "geometry": {
        "type": "Point",
        "coordinates": [
          35.0170252,
          48.4432715
        ]
      }
    },
    {
      "type": "Feature",
      "id": "node/3523698626",
      "properties": {
        "@id": "node/3523698626",
        "bench": "yes",
        "bus": "yes",
        "highway": "bus_stop",
        "name": "Юність",
        "name:ru": "Юность",
        "name:uk": "Юність",
        "share_taxi": "yes",
        "shelter": "yes",
        "trolleybus": "yes"
      },
      "geometry": {
        "type": "Point",
        "coordinates": [
          35.0176244,
          48.4431831
        ]
      }
    },
    {
      "type": "Feature",
      "id": "node/3523700395",
      "properties": {
        "@id": "node/3523700395",
        "bench": "yes",
        "bus": "yes",
        "highway": "bus_stop",
        "name": "Комбінат Дитячої Іграшки",
        "name:ru": "Комбинат Детской Игрушки",
        "name:uk": "Комбінат Дитячої Іграшки",
        "public_transport": "platform",
        "shelter": "yes",
        "trolleybus": "yes"
      },
      "geometry": {
        "type": "Point",
        "coordinates": [
          35.0188213,
          48.445499
        ]
      }
    },
    {
      "type": "Feature",
      "id": "node/3523700406",
      "properties": {
        "@id": "node/3523700406",
        "bench": "yes",
        "bus": "yes",
        "highway": "bus_stop",
        "name": "Комбінат Дитячої Іграшки",
        "name:ru": "Комбинат Детской Игрушки",
        "name:uk": "Комбінат Дитячої Іграшки",
        "public_transport": "platform",
        "shelter": "yes",
        "trolleybus": "yes"
      },
      "geometry": {
        "type": "Point",
        "coordinates": [
          35.0184784,
          48.4459854
        ]
      }
    },
    {
      "type": "Feature",
      "id": "node/3523701840",
      "properties": {
        "@id": "node/3523701840",
        "bench": "yes",
        "bus": "yes",
        "highway": "bus_stop",
        "name": "проспект Ілліча",
        "name:en": "Illicha Avenue",
        "name:ru": "проспект Ильича",
        "name:uk": "проспект Ілліча",
        "public_transport": "platform",
        "shelter": "yes",
        "trolleybus": "yes"
      },
      "geometry": {
        "type": "Point",
        "coordinates": [
          35.0202081,
          48.4491643
        ]
      }
    },
    {
      "type": "Feature",
      "id": "node/3523702739",
      "properties": {
        "@id": "node/3523702739",
        "bench": "yes",
        "bus": "yes",
        "highway": "bus_stop",
        "name": "проспект Ілліча",
        "name:en": "Illicha Avenue",
        "name:ru": "проспект Ильича",
        "name:uk": "проспект Ілліча",
        "public_transport": "platform",
        "shelter": "yes",
        "trolleybus": "yes"
      },
      "geometry": {
        "type": "Point",
        "coordinates": [
          35.0215226,
          48.4505592
        ]
      }
    },
    {
      "type": "Feature",
      "id": "node/3527094343",
      "properties": {
        "@id": "node/3527094343",
        "bench": "yes",
        "bus": "yes",
        "highway": "bus_stop",
        "name": "Димитрова вулиця",
        "name:en": "Dymytrova Street",
        "name:ru": "Димитрова улица",
        "name:uk": "Димитрова вулиця",
        "public_transport": "platform",
        "shelter": "yes",
        "trolleybus": "yes"
      },
      "geometry": {
        "type": "Point",
        "coordinates": [
          35.0229894,
          48.4544522
        ]
      }
    },
    {
      "type": "Feature",
      "id": "node/3529049498",
      "properties": {
        "@id": "node/3529049498",
        "bench": "yes",
        "bus": "yes",
        "highway": "bus_stop",
        "name": "Димитрова вулиця",
        "name:en": "Dymytrova Street",
        "name:ru": "Димитрова улица",
        "name:uk": "Димитрова вулиця",
        "public_transport": "platform",
        "shelter": "yes",
        "trolleybus": "yes"
      },
      "geometry": {
        "type": "Point",
        "coordinates": [
          35.0232601,
          48.4535987
        ]
      }
    },
    {
      "type": "Feature",
      "id": "node/3529049499",
      "properties": {
        "@id": "node/3529049499",
        "bench": "yes",
        "bus": "yes",
        "highway": "bus_stop",
        "name": "Кірова проспект",
        "name:ru": "Кирова проспект",
        "name:uk": "Кірова проспект",
        "public_transport": "platform",
        "shelter": "yes",
        "trolleybus": "yes"
      },
      "geometry": {
        "type": "Point",
        "coordinates": [
          35.0097929,
          48.4304592
        ]
      }
    },
    {
      "type": "Feature",
      "id": "node/3529049500",
      "properties": {
        "@id": "node/3529049500",
        "bench": "yes",
        "bus": "yes",
        "highway": "bus_stop",
        "name": "Пушкіна проспект",
        "name:en": "Pushkina Avenue",
        "name:ru": "Пушкина проспект",
        "name:uk": "Пушкіна проспект",
        "public_transport": "platform",
        "shelter": "yes",
        "trolleybus": "yes"
      },
      "geometry": {
        "type": "Point",
        "coordinates": [
          35.028747,
          48.4641256
        ]
      }
    },
    {
      "type": "Feature",
      "id": "node/3529049501",
      "properties": {
        "@id": "node/3529049501",
        "bench": "yes",
        "bus": "yes",
        "highway": "bus_stop",
        "name": "Пушкіна проспект",
        "name:en": "Pushkina Avenue",
        "name:ru": "Пушкина проспект",
        "name:uk": "Пушкіна проспект",
        "public_transport": "platform",
        "shelter": "yes",
        "trolleybus": "yes"
      },
      "geometry": {
        "type": "Point",
        "coordinates": [
          35.0282094,
          48.4642004
        ]
      }
    },
    {
      "type": "Feature",
      "id": "node/3529049502",
      "properties": {
        "@id": "node/3529049502",
        "bus": "yes",
        "highway": "bus_stop",
        "name": "СМСЧ № 6",
        "name:ru": "СМСЧ № 6",
        "name:uk": "СМСЧ № 6",
        "public_transport": "platform",
        "trolleybus": "yes"
      },
      "geometry": {
        "type": "Point",
        "coordinates": [
          35.0061179,
          48.4313038
        ]
      }
    },
    {
      "type": "Feature",
      "id": "node/3529049503",
      "properties": {
        "@id": "node/3529049503",
        "bus": "yes",
        "highway": "bus_stop",
        "name": "СМСЧ № 6",
        "name:ru": "СМСЧ № 6",
        "name:uk": "СМСЧ № 6",
        "public_transport": "platform",
        "trolleybus": "yes"
      },
      "geometry": {
        "type": "Point",
        "coordinates": [
          35.0048402,
          48.4314326
        ]
      }
    },
    {
      "type": "Feature",
      "id": "node/3529049504",
      "properties": {
        "@id": "node/3529049504",
        "bench": "yes",
        "bus": "yes",
        "highway": "bus_stop",
        "name": "ТРК «APPOLO»",
        "name:ru": "ТРК \"APPOLO\"",
        "name:uk": "ТРК «APPOLO»",
        "public_transport": "platform",
        "shelter": "yes",
        "trolleybus": "yes"
      },
      "geometry": {
        "type": "Point",
        "coordinates": [
          35.0006964,
          48.4325877
        ]
      }
    },
    {
      "type": "Feature",
      "id": "node/3529049506",
      "properties": {
        "@id": "node/3529049506",
        "bench": "yes",
        "bus": "yes",
        "highway": "bus_stop",
        "name": "Титова вулиця",
        "name:en": "Titova Street",
        "name:ru": "Титова улица",
        "name:uk": "Титова вулиця",
        "public_transport": "platform",
        "shelter": "yes",
        "trolleybus": "yes"
      },
      "geometry": {
        "type": "Point",
        "coordinates": [
          35.0001994,
          48.4325366
        ]
      }
    },
    {
      "type": "Feature",
      "id": "node/3529049507",
      "properties": {
        "@id": "node/3529049507",
        "bus": "yes",
        "highway": "bus_stop",
        "name": "Ульянова вулиця",
        "name:en": "Ulianova Street",
        "name:ru": "Ульянова улица",
        "name:uk": "Ульянова вулиця",
        "trolleybus": "yes"
      },
      "geometry": {
        "type": "Point",
        "coordinates": [
          35.0261087,
          48.460415
        ]
      }
    },
    {
      "type": "Feature",
      "id": "node/3529112221",
      "properties": {
        "@id": "node/3529112221",
        "bench": "yes",
        "name": "Героїв Майдану площа",
        "name:ru": "Героев Майдана площадь",
        "name:uk": "Героїв Майдану площа",
        "public_transport": "platform",
        "share_taxi": "yes",
        "shelter": "yes",
        "trolleybus": "yes"
      },
      "geometry": {
        "type": "Point",
        "coordinates": [
          35.0448959,
          48.4647934
        ]
      }
    },
    {
      "type": "Feature",
      "id": "node/3529112222",
      "properties": {
        "@id": "node/3529112222",
        "bench": "yes",
        "bus": "yes",
        "highway": "bus_stop",
        "name": "Героїв Майдану площа",
        "name:ru": "Героев Майдана площадь",
        "name:uk": "Героїв Майдану площа",
        "old_name:ru": "им. Ленина площадь",
        "public_transport": "platform",
        "share_taxi": "yes",
        "shelter": "yes",
        "trolleybus": "yes"
      },
      "geometry": {
        "type": "Point",
        "coordinates": [
          35.0460773,
          48.4649198
        ]
      }
    },
    {
      "type": "Feature",
      "id": "node/3529112224",
      "properties": {
        "@id": "node/3529112224",
        "bench": "yes",
        "bus": "yes",
        "highway": "bus_stop",
        "name": "Короленка вулиця",
        "name:ru": "Короленко улица",
        "name:uk": "Короленка вулиця",
        "public_transport": "platform",
        "share_taxi": "yes",
        "shelter": "yes",
        "trolleybus": "yes"
      },
      "geometry": {
        "type": "Point",
        "coordinates": [
          35.0423173,
          48.4661592
        ]
      }
    },
    {
      "type": "Feature",
      "id": "node/3529112225",
      "properties": {
        "@id": "node/3529112225",
        "bench": "yes",
        "bus": "yes",
        "highway": "bus_stop",
        "name": "Леніна вулиця",
        "name:en": "Lenina Street",
        "name:ru": "Ленина улица",
        "name:uk": "Леніна вулиця",
        "public_transport": "platform",
        "share_taxi": "yes",
        "shelter": "yes",
        "trolleybus": "yes"
      },
      "geometry": {
        "type": "Point",
        "coordinates": [
          35.0406271,
          48.4678002
        ]
      }
    },
    {
      "type": "Feature",
      "id": "node/3529112227",
      "properties": {
        "@id": "node/3529112227",
        "bus": "yes",
        "highway": "bus_stop",
        "name": "Серова вулиця",
        "name:en": "Sierova Street",
        "name:ru": "Серова улица",
        "name:uk": "Серова вулиця",
        "public_transport": "platform",
        "trolleybus": "yes"
      },
      "geometry": {
        "type": "Point",
        "coordinates": [
          35.0369776,
          48.4680225
        ]
      }
    }
  ]
}